{"type": "FeatureCollection", "features": [{"type": "Feature", "properties": {"name": "TATA CHEMICALS LTD.", "price": 8300, "img": "https://cdn.pixabay.com/photo/2021/05/17/05/21/flower-6259783_960_720.jpg", "id": 1, "available": 1, "nextDate": "-"}, "geometry": {"type": "Point", "coordinates": [73.828125, 20.148784632164155]}}, {"type": "Feature", "properties": {"name": "TAMILNADU PETROPRODUCTS LTD.", "price": 5800, "img": "https://cdn.pixabay.com/photo/2021/06/04/06/54/racket-6308994_960_720.jpg", "id": 2, "available": 0, "nextDate": "18 August 2021"}, "geometry": {"type": "Point", "coordinates": [73.9984130859375, 20.282808691330054]}}, {"type": "Feature", "properties": {"name": "ZUARI GLOBAL LTD.", "price": 10000, "img": "https://cdn.pixabay.com/photo/2018/04/23/21/26/auto-3345601_960_720.jpg", "id": 3, "available": 1, "nextDate": "-"}, "geometry": {"type": "Point", "coordinates": [73.67568969726562, 20.2209657795223]}}, {"type": "Feature", "properties": {"name": "NESTLE INDIA LTD.", "price": 8100, "img": "https://cdn.pixabay.com/photo/2021/05/29/07/10/daffodils-6292667_960_720.jpg", "id": 4, "available": 0, "nextDate": "26 June 2021"}, "geometry": {"type": "Point", "coordinates": [74.06570434570312, 19.91267470522604]}}, {"type": "Feature", "properties": {"name": "Tata Consumer Products Ltd", "price": 20000, "img": "https://cdn.pixabay.com/photo/2021/05/22/17/06/hybrid-6274156_960_720.jpg", "id": 5, "available": 1, "nextDate": "-"}, "geometry": {"type": "Point", "coordinates": [73.51776123046875, 19.42256346067618]}}, {"type": "Feature", "properties": {"name": "ASIAN PAINTS LTD.", "price": 15200, "img": "https://cdn.pixabay.com/photo/2021/04/13/06/59/woman-6174830_960_720.jpg", "id": 6, "available": 0, "nextDate": "18 September 2021"}, "geometry": {"type": "Point", "coordinates": [74.01901245117188, 19.168518577121873]}}, {"type": "Feature", "properties": {"name": "BRITANNIA INDUSTRIES LTD.", "price": 9400, "img": "https://cdn.pixabay.com/photo/2021/04/16/07/22/ao-dai-6182834_960_720.jpg", "id": 7, "available": 0, "nextDate": "21 July 2021"}, "geometry": {"type": "Point", "coordinates": [74.51751708984375, 19.130896892173755]}}, {"type": "Feature", "properties": {"name": "COLGATE-PALMOLIVE (INDIA) LTD.", "price": 10100, "img": "https://cdn.pixabay.com/photo/2021/06/04/06/09/cherries-6308871_960_720.jpg", "id": 8, "available": 0, "nextDate": "14 September 2021"}, "geometry": {"type": "Point", "coordinates": [74.40902709960938, 18.530398219358684]}}, {"type": "Feature", "properties": {"name": "EIH LTD.", "price": 4100, "img": "https://cdn.pixabay.com/photo/2021/06/04/08/05/poppy-6309124_960_720.jpg", "id": 9, "available": 1, "nextDate": "-"}, "geometry": {"type": "Point", "coordinates": [73.80477905273438, 18.577267134974353]}}, {"type": "Feature", "properties": {"name": "INDIAN HOTELS CO.LTD.", "price": 2000, "img": "https://cdn.pixabay.com/photo/2020/10/08/13/01/city-5637906_960_720.jpg", "id": 10, "available": 0, "nextDate": "07 July 2021"}, "geometry": {"type": "Point", "coordinates": [73.8006591796875, 18.527794013553017]}}, {"type": "Feature", "properties": {"name": "CASTROL INDIA LTD.", "price": 7800, "img": "https://cdn.pixabay.com/photo/2017/11/22/22/55/glasses-2971680_960_720.jpg", "id": 11, "available": 0, "nextDate": "28 September 2021"}, "geometry": {"type": "Point", "coordinates": [73.85971069335938, 18.588982352118453]}}, {"type": "Feature", "properties": {"name": "ITC LTD.", "price": 1800, "img": "https://cdn.pixabay.com/photo/2015/06/08/15/11/typewriter-801921_960_720.jpg", "id": 12, "available": 0, "nextDate": "20 June 2021"}, "geometry": {"type": "Point", "coordinates": [73.6688232421875, 18.34409780210156]}}, {"type": "Feature", "properties": {"name": "APOLLO TYRES LTD.", "price": 7400, "img": "https://cdn.pixabay.com/photo/2015/11/19/21/10/glasses-1052010_960_720.jpg", "id": 13, "available": 1, "nextDate": "-"}, "geometry": {"type": "Point", "coordinates": [73.84735107421875, 17.99963161491187]}}, {"type": "Feature", "properties": {"name": "CEAT LTD.", "price": 6700, "img": "https://cdn.pixabay.com/photo/2021/05/17/05/21/flower-6259783_960_720.jpg", "id": 14, "available": 0, "nextDate": "13 September 2021"}, "geometry": {"type": "Point", "coordinates": [74.20028686523438, 17.829759683729222]}}, {"type": "Feature", "properties": {"name": "MODI RUBBER LTD.", "price": 17600, "img": "https://cdn.pixabay.com/photo/2021/06/04/06/54/racket-6308994_960_720.jpg", "id": 15, "available": 1, "nextDate": "-"}, "geometry": {"type": "Point", "coordinates": [73.58917236328125, 17.642713334367667]}}, {"type": "Feature", "properties": {"name": "FINOLEX INDUSTRIES LTD.", "price": 3800, "img": "https://cdn.pixabay.com/photo/2018/04/23/21/26/auto-3345601_960_720.jpg", "id": 16, "available": 0, "nextDate": "31 August 2021"}, "geometry": {"type": "Point", "coordinates": [74.39117431640625, 18.00616189446879]}}, {"type": "Feature", "properties": {"name": "SUNRISE INDUSTRIAL TRADERS LTD.", "price": 12500, "img": "https://cdn.pixabay.com/photo/2021/05/29/07/10/daffodils-6292667_960_720.jpg", "id": 17, "available": 0, "nextDate": "17 July 2021"}, "geometry": {"type": "Point", "coordinates": [74.26345825195312, 17.561555794532893]}}, {"type": "Feature", "properties": {"name": "GOLD ROCK INVESTMENTS LTD.", "price": 13400, "img": "https://cdn.pixabay.com/photo/2021/05/22/17/06/hybrid-6274156_960_720.jpg", "id": 18, "available": 0, "nextDate": "02 August 2021"}, "geometry": {"type": "Point", "coordinates": [74.0313720703125, 17.447612101734016]}}, {"type": "Feature", "properties": {"name": "PEOPLES INVESTMENTS LTD.", "price": 10800, "img": "https://cdn.pixabay.com/photo/2021/04/13/06/59/woman-6174830_960_720.jpg", "id": 19, "available": 1, "nextDate": "-"}, "geometry": {"type": "Point", "coordinates": [74.1961669921875, 17.278530057814592]}}, {"type": "Feature", "properties": {"name": "DALAL STREET INVESTMENTS LTD.", "price": 1700, "img": "https://cdn.pixabay.com/photo/2021/04/16/07/22/ao-dai-6182834_960_720.jpg", "id": 20, "available": 0, "nextDate": "23 August 2021"}, "geometry": {"type": "Point", "coordinates": [74.278564453125, 17.114542657151997]}}, {"type": "Feature", "properties": {"name": "CENTRUM CAPITAL LTD.", "price": 16000, "img": "https://cdn.pixabay.com/photo/2021/06/04/06/09/cherries-6308871_960_720.jpg", "id": 21, "available": 0, "nextDate": "20 September 2021"}, "geometry": {"type": "Point", "coordinates": [73.98880004882812, 16.73090658973393]}}, {"type": "Feature", "properties": {"name": "KARTIK INVESTMENTS TRUST LTD.", "price": 19000, "img": "https://cdn.pixabay.com/photo/2021/06/04/08/05/poppy-6309124_960_720.jpg", "id": 22, "available": 1, "nextDate": "-"}, "geometry": {"type": "Point", "coordinates": [74.26895141601562, 16.6532966152416]}}, {"type": "Feature", "properties": {"name": "TCI FINANCE LTD.", "price": 18700, "img": "https://cdn.pixabay.com/photo/2020/10/08/13/01/city-5637906_960_720.jpg", "id": 23, "available": 0, "nextDate": "31 July 2021"}, "geometry": {"type": "Point", "coordinates": [74.54360961914062, 16.78087595877284]}}, {"type": "Feature", "properties": {"name": "KRATOS ENERGY & INFRASTRUCTURE LTD.", "price": 16800, "img": "https://cdn.pixabay.com/photo/2017/11/22/22/55/glasses-2971680_960_720.jpg", "id": 24, "available": 0, "nextDate": "21 August 2021"}, "geometry": {"type": "Point", "coordinates": [74.6905517578125, 16.61645374755694]}}, {"type": "Feature", "properties": {"name": "Antariksh Industries Ltd", "price": 12800, "img": "https://cdn.pixabay.com/photo/2015/06/08/15/11/typewriter-801921_960_720.jpg", "id": 25, "available": 0, "nextDate": "26 September 2021"}, "geometry": {"type": "Point", "coordinates": [74.48593139648438, 16.21071855497922]}}, {"type": "Feature", "properties": {"name": "INDUSTRIAL INVESTMENT TRUST LTD.", "price": 5000, "img": "https://cdn.pixabay.com/photo/2015/11/19/21/10/glasses-1052010_960_720.jpg", "id": 26, "available": 0, "nextDate": "27 July 2021"}, "geometry": {"type": "Point", "coordinates": [74.40765380859375, 15.854352464304384]}}, {"type": "Feature", "properties": {"name": "INDUSTRIAL & PRUDENTIAL INVESTMENTS CO.LTD.", "price": 12700, "img": "https://cdn.pixabay.com/photo/2021/05/17/05/21/flower-6259783_960_720.jpg", "id": 27, "available": 0, "nextDate": "21 August 2021"}, "geometry": {"type": "Point", "coordinates": [74.58206176757812, 15.580710739162123]}}, {"type": "Feature", "properties": {"name": "TATA INVESTMENT CORPORATION LTD.", "price": 11100, "img": "https://cdn.pixabay.com/photo/2021/06/04/06/54/racket-6308994_960_720.jpg", "id": 28, "available": 0, "nextDate": "01 September 2021"}, "geometry": {"type": "Point", "coordinates": [75.42938232421875, 16.043173858350652]}}, {"type": "Feature", "properties": {"name": "JAYABHARAT CREDIT LTD.-$", "price": 14600, "img": "https://cdn.pixabay.com/photo/2018/04/23/21/26/auto-3345601_960_720.jpg", "id": 29, "available": 1, "nextDate": "-"}, "geometry": {"type": "Point", "coordinates": [75.5474853515625, 16.650665216641222]}}, {"type": "Feature", "properties": {"name": "Prismx Global Ventures Ltd", "price": 3300, "img": "https://cdn.pixabay.com/photo/2021/05/29/07/10/daffodils-6292667_960_720.jpg", "id": 30, "available": 0, "nextDate": "21 August 2021"}, "geometry": {"type": "Point", "coordinates": [75.62164306640625, 17.030525041643063]}}, {"type": "Feature", "properties": {"name": "MOTOR & GENERAL FINANCE LTD.", "price": 11200, "img": "https://cdn.pixabay.com/photo/2021/05/22/17/06/hybrid-6274156_960_720.jpg", "id": 31, "available": 1, "nextDate": "-"}, "geometry": {"type": "Point", "coordinates": [75.77407836914062, 17.484291431493666]}}, {"type": "Feature", "properties": {"name": "RAPID INVESTMENTS LTD.", "price": 12600, "img": "https://cdn.pixabay.com/photo/2021/04/13/06/59/woman-6174830_960_720.jpg", "id": 32, "available": 1, "nextDate": "-"}, "geometry": {"type": "Point", "coordinates": [75.9375, 17.79576579725599]}}, {"type": "Feature", "properties": {"name": "WALCHAND PEOPLEFIRST LTD.", "price": 4600, "img": "https://cdn.pixabay.com/photo/2021/04/16/07/22/ao-dai-6182834_960_720.jpg", "id": 33, "available": 1, "nextDate": "-"}, "geometry": {"type": "Point", "coordinates": [75.68893432617188, 18.245003052249718]}}, {"type": "Feature", "properties": {"name": "SWASTIK SAFE DEPOSIT & INVESTMENTS LTD.", "price": 5300, "img": "https://cdn.pixabay.com/photo/2021/06/04/06/09/cherries-6308871_960_720.jpg", "id": 34, "available": 1, "nextDate": "-"}, "geometry": {"type": "Point", "coordinates": [75.72601318359375, 18.173254472950752]}}, {"type": "Feature", "properties": {"name": "W.H.BRADY & CO.LTD.", "price": 5700, "img": "https://cdn.pixabay.com/photo/2021/06/04/08/05/poppy-6309124_960_720.jpg", "id": 35, "available": 0, "nextDate": "09 August 2021"}, "geometry": {"type": "Point", "coordinates": [75.63400268554688, 18.21369821621042]}}, {"type": "Feature", "properties": {"name": "TECHNVISION VENTURES LTD.", "price": 6600, "img": "https://cdn.pixabay.com/photo/2020/10/08/13/01/city-5637906_960_720.jpg", "id": 36, "available": 0, "nextDate": "20 August 2021"}, "geometry": {"type": "Point", "coordinates": [76.19979858398438, 19.177598387749878]}}, {"type": "Feature", "properties": {"name": "SHAILY ENGINEERING PLASTICS LTD.", "price": 4400, "img": "https://cdn.pixabay.com/photo/2017/11/22/22/55/glasses-2971680_960_720.jpg", "id": 37, "available": 1, "nextDate": "-"}, "geometry": {"type": "Point", "coordinates": [76.79443359375, 19.321511226817176]}}, {"type": "Feature", "properties": {"name": "BOMBAY BURMAH TRADING CORP.LTD.", "price": 15100, "img": "https://cdn.pixabay.com/photo/2015/06/08/15/11/typewriter-801921_960_720.jpg", "id": 38, "available": 0, "nextDate": "25 July 2021"}, "geometry": {"type": "Point", "coordinates": [76.54998779296875, 19.48860213599771]}}, {"type": "Feature", "properties": {"name": "BOMBAY CYCLE & MOTOR AGENCY LTD.", "price": 2300, "img": "https://cdn.pixabay.com/photo/2015/11/19/21/10/glasses-1052010_960_720.jpg", "id": 39, "available": 1, "nextDate": "-"}, "geometry": {"type": "Point", "coordinates": [77.113037109375, 19.67103928897615]}}, {"type": "Feature", "properties": {"name": "GREAVES COTTON LTD.", "price": 2300, "img": "https://cdn.pixabay.com/photo/2021/05/17/05/21/flower-6259783_960_720.jpg", "id": 40, "available": 0, "nextDate": "11 August 2021"}, "geometry": {"type": "Point", "coordinates": [77.09381103515624, 20.69574627626688]}}, {"type": "Feature", "properties": {"name": "MULLER & PHIPPS (INDIA) LTD.", "price": 9500, "img": "https://cdn.pixabay.com/photo/2021/06/04/06/54/racket-6308994_960_720.jpg", "id": 41, "available": 0, "nextDate": "27 September 2021"}, "geometry": {"type": "Point", "coordinates": [77.47146606445312, 21.259941170930436]}}, {"type": "Feature", "properties": {"name": "AMALGAMATED ELECTRICITY CO.LTD.", "price": 14900, "img": "https://cdn.pixabay.com/photo/2018/04/23/21/26/auto-3345601_960_720.jpg", "id": 42, "available": 0, "nextDate": "21 June 2021"}, "geometry": {"type": "Point", "coordinates": [73.9764404296875, 17.759149755400156]}}, {"type": "Feature", "properties": {"name": "Anand Projects Ltd", "price": 17400, "img": "https://cdn.pixabay.com/photo/2021/05/29/07/10/daffodils-6292667_960_720.jpg", "id": 43, "available": 1, "nextDate": "-"}, "geometry": {"type": "Point", "coordinates": [75.74523925781249, 19.02057711096681]}}]}